[
  {
    "name": "신대방1동 수거함",
    "lat": 37.48854368,
    "lng": 126.9094842,
    "address": "서울특별시 동작구 신대방길 59"
  },
  {
    "name": "신대방1동 수거함",
    "lat": 37.48937584,
    "lng": 126.9098258,
    "address": "서울특별시 동작구 신대방길 80"
  },
  {
    "name": "신대방1동 수거함",
    "lat": 37.48675915,
    "lng": 126.9103197,
    "address": "서울특별시 동작구 신대방1길 24"
  },
  {
    "name": "신대방1동 수거함",
    "lat": 37.48654417,
    "lng": 126.909617,
    "address": "서울특별시 동작구 신대방1길 38"
  },
  {
    "name": "신대방1동 수거함",
    "lat": 37.48627789,
    "lng": 126.908745,
    "address": "서울특별시 동작구 신대방1길 56"
  },
  {
    "name": "신대방1동 수거함",
    "lat": 37.48600529,
    "lng": 126.9078725,
    "address": "서울특별시 동작구 신대방1길 72"
  },
  {
    "name": "신대방1동 수거함",
    "lat": 37.48565729,
    "lng": 126.9065708,
    "address": "서울특별시 동작구 신대방1길 96"
  },
  {
    "name": "신대방1동 수거함",
    "lat": 37.48546323,
    "lng": 126.905463,
    "address": "서울특별시 동작구 신대방1길 116-1"
  },
  {
    "name": "신대방1동 수거함",
    "lat": 37.48664583,
    "lng": 126.9059471,
    "address": "서울특별시 동작구 신대방1다길 24"
  },
  {
    "name": "신대방1동 수거함",
    "lat": 37.48848748,
    "lng": 126.9131143,
    "address": "서울특별시 동작구 신대방2길 21"
  },
  {
    "name": "신대방1동 수거함",
    "lat": 37.48881624,
    "lng": 126.9124845,
    "address": "서울특별시 동작구 신대방2길 39"
  },
  {
    "name": "신대방1동 수거함",
    "lat": 37.4892272332,
    "lng": 126.911331597,
    "address": "서울특별시 동작구 신대방2길 61"
  },
  {
    "name": "신대방1동 수거함",
    "lat": 37.48869638,
    "lng": 126.910758,
    "address": "서울특별시 동작구 신대방6길 13"
  },
  {
    "name": "신대방1동 수거함",
    "lat": 37.48782407,
    "lng": 126.9099836,
    "address": "서울특별시 동작구 신대방7길 6-1"
  },
  {
    "name": "신대방1동 수거함",
    "lat": 37.48858341,
    "lng": 126.9081937,
    "address": "서울특별시 동작구 신대방11길 23 "
  },
  {
    "name": "신대방1동 수거함",
    "lat": 37.489776423,
    "lng": 126.9111260574,
    "address": "서울특별시 동작구 신대방14길 15"
  },
  {
    "name": "신대방1동 수거함",
    "lat": 37.4901181005,
    "lng": 126.911386629,
    "address": "서울특별시 동작구 신대방14길 21"
  },
  {
    "name": "신대방1동 수거함",
    "lat": 37.48996677,
    "lng": 126.91277,
    "address": "서울특별시 동작구 신대방14가길 34"
  },
  {
    "name": "신대방1동 수거함",
    "lat": 37.48975505,
    "lng": 126.9136475,
    "address": "서울특별시 동작구 신대방14가길 55"
  },
  {
    "name": "신대방1동 수거함",
    "lat": 37.48958032,
    "lng": 126.9138602,
    "address": "서울특별시 동작구 신대방14가길 60"
  },
  {
    "name": "신대방1동 수거함",
    "lat": 37.4900789888,
    "lng": 126.9098280545,
    "address": "서울특별시 동작구 신대방16길 10"
  },
  {
    "name": "신대방1동 수거함",
    "lat": 37.4905616,
    "lng": 126.9097551,
    "address": "서울특별시 동작구 신대방16길 20"
  },
  {
    "name": "신대방1동 수거함",
    "lat": 37.49102359,
    "lng": 126.9087555,
    "address": "서울특별시 동작구 신대방16길 41"
  },
  {
    "name": "신대방2동 수거함",
    "lat": 37.4975662762,
    "lng": 126.9209114241,
    "address": "서울특별시 동작구 여의대방로22길 18"
  },
  {
    "name": "신대방2동 수거함",
    "lat": 37.49685033,
    "lng": 126.9208958,
    "address": "서울특별시 동작구 여의대방로22가길 25"
  },
  {
    "name": "신대방2동 수거함",
    "lat": 0.0,
    "lng": 0.0,
    "address": "서울특별시 동작구 여의대방로22나길 58"
  },
  {
    "name": "신대방2동 수거함",
    "lat": 37.4951749,
    "lng": 126.9233437,
    "address": "서울특별시 동작구 여의대방로22나길 78"
  },
  {
    "name": "신대방2동 수거함",
    "lat": 37.49653733,
    "lng": 126.9236624,
    "address": "서울특별시 동작구 여의대방로22바길 40"
  },
  {
    "name": "신대방2동 수거함",
    "lat": 37.4968138346,
    "lng": 126.9236332639,
    "address": "서울특별시 동작구 여의대방로22바길 44"
  },
  {
    "name": "신대방2동 수거함",
    "lat": 37.4975681384,
    "lng": 126.9245859232,
    "address": "서울특별시 동작구 여의대방로22사길 15"
  },
  {
    "name": "신대방2동 수거함",
    "lat": 37.4964815461,
    "lng": 126.9244783419,
    "address": "서울특별시 동작구 여의대방로22아길 23 "
  },
  {
    "name": "신대방2동 수거함",
    "lat": 37.4970719431,
    "lng": 126.9245685547,
    "address": "서울특별시 동작구 여의대방로22자길 3"
  },
  {
    "name": "신대방2동 수거함",
    "lat": 37.497794,
    "lng": 126.9258278,
    "address": "서울특별시 동작구 여의대방로22카길 12"
  },
  {
    "name": "신대방2동 수거함",
    "lat": 37.4962685663,
    "lng": 126.9259301022,
    "address": "서울특별시 동작구 여의대방로22카길 47"
  },
  {
    "name": "신대방2동 수거함",
    "lat": 37.4957125535,
    "lng": 126.9260713267,
    "address": "서울특별시 동작구 여의대방로22카길 57"
  },
  {
    "name": "신대방2동 수거함",
    "lat": 37.49486561,
    "lng": 126.9267989,
    "address": "서울특별시 동작구 보라매로9길 5"
  },
  {
    "name": "신대방2동 수거함",
    "lat": 37.49403988,
    "lng": 126.9257057,
    "address": "서울특별시 동작구 보라매로7가길 15"
  },
  {
    "name": "신대방2동 수거함",
    "lat": 37.4963118152,
    "lng": 126.9267983187,
    "address": "서울특별시 동작구 보라매로13길 18"
  },
  {
    "name": "신대방2동 수거함",
    "lat": 37.49751895,
    "lng": 126.9261625,
    "address": "서울특별시 동작구 보라매로17길 33"
  },
  {
    "name": "신대방2동 수거함",
    "lat": 37.4977550362,
    "lng": 126.9294458414,
    "address": "서울특별시 동작구 국사봉길 34"
  },
  {
    "name": "신대방2동 수거함",
    "lat": 37.49744214,
    "lng": 126.9285846,
    "address": "서울특별시 동작구 국사봉2길 27 "
  },
  {
    "name": "신대방2동 수거함",
    "lat": 37.49699021,
    "lng": 126.9296568,
    "address": "서울특별시 동작구 국사봉2나길 19"
  },
  {
    "name": "신대방2동 수거함",
    "lat": 37.49699021,
    "lng": 126.9296568,
    "address": "서울특별시 동작구 국사봉2나길 19"
  },
  {
    "name": "신대방2동 수거함",
    "lat": 37.49626459,
    "lng": 126.9287013,
    "address": "서울특별시 동작구 국사봉2라길 3"
  },
  {
    "name": "신대방2동 수거함",
    "lat": 37.49489755,
    "lng": 126.9295388,
    "address": "서울특별시 동작구 국사봉2바길 23"
  },
  {
    "name": "대방동 수거함",
    "lat": 37.4983456248,
    "lng": 126.9223729315,
    "address": "서울특별시 동작구 여의대방로24라길 7"
  },
  {
    "name": "대방동 수거함",
    "lat": 37.5043329042,
    "lng": 126.9226572767,
    "address": "서울특별시 동작구 여의대방로36길 7"
  },
  {
    "name": "대방동 수거함",
    "lat": 37.50474851,
    "lng": 126.9237253,
    "address": "서울특별시 동작구 여의대방로36길 16 "
  },
  {
    "name": "대방동 수거함",
    "lat": 37.50557456,
    "lng": 126.9252893,
    "address": "서울특별시 동작구 여의대방로36길 36-1"
  },
  {
    "name": "대방동 수거함",
    "lat": 37.5090631906,
    "lng": 126.9317385476,
    "address": "서울특별시 동작구 여의대방로36길 101-12"
  },
  {
    "name": "대방동 수거함",
    "lat": 37.5125239,
    "lng": 126.9286029,
    "address": "서울특별시 동작구 여의대방로54길 31"
  },
  {
    "name": "대방동 수거함",
    "lat": 37.50026166,
    "lng": 126.9239617,
    "address": "서울특별시 동작구 대방동27길 110"
  },
  {
    "name": "대방동 수거함",
    "lat": 37.5032636803,
    "lng": 126.9253164401,
    "address": "서울특별시 동작구 대방동길 57-1"
  },
  {
    "name": "대방동 수거함",
    "lat": 37.5038021492,
    "lng": 126.9253608026,
    "address": "서울특별시 동작구 대방동길 65"
  },
  {
    "name": "대방동 수거함",
    "lat": 37.5039437908,
    "lng": 126.9252239291,
    "address": "서울특별시 동작구 대방동길 67"
  },
  {
    "name": "대방동 수거함",
    "lat": 37.50485468,
    "lng": 126.9247555911,
    "address": "서울특별시 동작구 대방동길 77"
  },
  {
    "name": "대방동 수거함",
    "lat": 37.5023156,
    "lng": 126.9284453,
    "address": "서울특별시 동작구 대방동2길 28 "
  },
  {
    "name": "대방동 수거함",
    "lat": 37.5028519872,
    "lng": 126.9273005172,
    "address": "서울특별시 동작구 대방동2길 40"
  },
  {
    "name": "대방동 수거함",
    "lat": 37.50296895,
    "lng": 126.9267409,
    "address": "서울특별시 동작구 대방동2길 44 "
  },
  {
    "name": "대방동 수거함",
    "lat": 37.50210334,
    "lng": 126.9256975,
    "address": "서울특별시 동작구 대방동7길 27"
  },
  {
    "name": "대방동 수거함",
    "lat": 37.50068974,
    "lng": 126.924693,
    "address": "서울특별시 동작구 대방동7길 76"
  },
  {
    "name": "대방동 수거함",
    "lat": 37.50294068,
    "lng": 126.9240661,
    "address": "서울특별시 동작구 대방동15길 12"
  },
  {
    "name": "대방동 수거함",
    "lat": 37.5029578693,
    "lng": 126.9233321703,
    "address": "서울특별시 동작구 대방동15길 20"
  },
  {
    "name": "대방동 수거함",
    "lat": 37.50298865,
    "lng": 126.9228588,
    "address": "서울특별시 동작구 대방동15길 24"
  },
  {
    "name": "대방동 수거함",
    "lat": 37.50358565,
    "lng": 126.923125,
    "address": "서울특별시 동작구 대방동15나길 16"
  },
  {
    "name": "대방동 수거함",
    "lat": 37.50394667,
    "lng": 126.9240932,
    "address": "서울특별시 동작구 대방동23길 21 "
  },
  {
    "name": "대방동 수거함",
    "lat": 37.50543759,
    "lng": 126.9340325,
    "address": "서울특별시 동작구 등용로 41-1"
  },
  {
    "name": "대방동 수거함",
    "lat": 37.5064188395,
    "lng": 126.9328526083,
    "address": "서울특별시 동작구 등용로 56-1 "
  },
  {
    "name": "대방동 수거함",
    "lat": 37.50616117,
    "lng": 126.9335217,
    "address": "서울특별시 동작구 등용로6길 7"
  },
  {
    "name": "대방동 수거함",
    "lat": 37.50688951,
    "lng": 126.9334587,
    "address": "서울특별시 동작구 등용로8가길 2"
  },
  {
    "name": "대방동 수거함",
    "lat": 37.51097382,
    "lng": 126.9278769,
    "address": "서울특별시 동작구 알마타길 26"
  },
  {
    "name": "대방동 수거함",
    "lat": 37.51155855,
    "lng": 126.9281365,
    "address": "서울특별시 동작구 알마타길 21-24"
  },
  {
    "name": "대방동 수거함",
    "lat": 37.50004268,
    "lng": 126.929273,
    "address": "서울특별시 동작구 상도로11길 1"
  },
  {
    "name": "대방동 수거함",
    "lat": 37.5000371693,
    "lng": 126.929857263,
    "address": "서울특별시 동작구 상도로11길 4-10"
  },
  {
    "name": "대방동 수거함",
    "lat": 0.0,
    "lng": 0.0,
    "address": "서울특별시 동작구 대방동 404-27"
  },
  {
    "name": "대방동 수거함",
    "lat": 37.49942853,
    "lng": 126.9234622,
    "address": "서울특별시 동작구 여의대방로28길 56"
  },
  {
    "name": "대방동 수거함",
    "lat": 37.4997030245,
    "lng": 126.9214702058,
    "address": "서울특별시 동작구 상도로 10"
  },
  {
    "name": "대방동 수거함",
    "lat": 37.4983456248,
    "lng": 126.9223729315,
    "address": "서울특별시 동작구 여의대방로24라길 7"
  },
  {
    "name": "대방동 수거함",
    "lat": 37.49798565,
    "lng": 126.9231623,
    "address": "서울특별시 동작구 여의대방로24길 52"
  },
  {
    "name": "대방동 수거함",
    "lat": 37.49798173,
    "lng": 126.922,
    "address": "서울특별시 동작구 여의대방로24길 29"
  },
  {
    "name": "대방동 수거함",
    "lat": 0.0,
    "lng": 0.0,
    "address": "서울특별시 동작구 대방로27길 61-5"
  },
  {
    "name": "대방동 수거함",
    "lat": 0.0,
    "lng": 0.0,
    "address": "서울특별시 동작구 대방동 391-354"
  },
  {
    "name": "대방동 수거함",
    "lat": 37.50068974,
    "lng": 126.924693,
    "address": "서울특별시 동작구 대방동7길 76"
  },
  {
    "name": "대방동 수거함",
    "lat": 37.50229142,
    "lng": 126.9257749,
    "address": "서울특별시 동작구 대방동7길 26"
  },
  {
    "name": "대방동 수거함",
    "lat": 37.5003725852,
    "lng": 126.9265486097,
    "address": "서울특별시 동작구 대방동1길 12"
  },
  {
    "name": "대방동 수거함",
    "lat": 37.5001523411,
    "lng": 126.9273611497,
    "address": "서울특별시 동작구 대방동1길 3"
  },
  {
    "name": "대방동 수거함",
    "lat": 37.50272942,
    "lng": 126.9252317,
    "address": "서울특별시 동작구 대방동15길 1"
  },
  {
    "name": "노량진1동 수거함",
    "lat": 37.5131913107,
    "lng": 126.9444377772,
    "address": "서울특별시 동작구 만양로 110"
  },
  {
    "name": "노량진1동 수거함",
    "lat": 37.5085918589,
    "lng": 126.9475813662,
    "address": "서울특별시 동작구 만양로8길 11"
  },
  {
    "name": "노량진1동 수거함",
    "lat": 37.5093358111,
    "lng": 126.9469593412,
    "address": "서울특별시 동작구 만양로8길 33"
  },
  {
    "name": "노량진1동 수거함",
    "lat": 0.0,
    "lng": 0.0,
    "address": "서울특별시 동작구 만양로8길 84"
  },
  {
    "name": "노량진1동 수거함",
    "lat": 37.5095564853,
    "lng": 126.9464009036,
    "address": "서울특별시 동작구 만양로10길 15"
  },
  {
    "name": "노량진1동 수거함",
    "lat": 37.5108838966,
    "lng": 126.9471148976,
    "address": "서울특별시 동작구 만양로12가길 1"
  },
  {
    "name": "노량진1동 수거함",
    "lat": 37.5115370369,
    "lng": 126.9483415348,
    "address": "서울특별시 동작구 만양로12가길 24"
  },
  {
    "name": "노량진1동 수거함",
    "lat": 37.5099435316,
    "lng": 126.944781195,
    "address": "서울특별시 동작구 만양로13길 17"
  },
  {
    "name": "노량진1동 수거함",
    "lat": 37.5106576789,
    "lng": 126.9457776956,
    "address": "서울특별시 동작구 만양로14다길 23"
  },
  {
    "name": "노량진1동 수거함",
    "lat": 37.5111907009,
    "lng": 126.946941402,
    "address": "서울특별시 동작구 만양로14바길 21-4"
  },
  {
    "name": "노량진1동 수거함",
    "lat": 37.5107673058,
    "lng": 126.9465125781,
    "address": "서울특별시 동작구 만양로14바길 36"
  },
  {
    "name": "노량진1동 수거함",
    "lat": 37.5116078901,
    "lng": 126.9448308671,
    "address": "서울특별시 동작구 만양로16길 6"
  },
  {
    "name": "노량진1동 수거함",
    "lat": 37.5084960897,
    "lng": 126.9403779398,
    "address": "서울특별시 동작구 장승배기로 122"
  },
  {
    "name": "노량진1동 수거함",
    "lat": 37.5101548052,
    "lng": 126.9399551916,
    "address": "서울특별시 동작구 장승배기로 139-2"
  },
  {
    "name": "노량진1동 수거함",
    "lat": 37.510021771,
    "lng": 126.9403982162,
    "address": "서울특별시 동작구 장승배기로 140"
  },
  {
    "name": "노량진1동 수거함",
    "lat": 37.5117503818,
    "lng": 126.9408241612,
    "address": "서울특별시 동작구 장승배기로 160"
  },
  {
    "name": "노량진1동 수거함",
    "lat": 37.5105778653,
    "lng": 126.9431281424,
    "address": "서울특별시 동작구 장승배기로16길 135"
  },
  {
    "name": "노량진1동 수거함",
    "lat": 37.5096567455,
    "lng": 126.9427076413,
    "address": "서울특별시 동작구 장승배기로20길 54"
  },
  {
    "name": "노량진1동 수거함",
    "lat": 37.50970249,
    "lng": 126.9415500975,
    "address": "서울특별시 동작구 장승배기로20다길 6-1"
  },
  {
    "name": "노량진1동 수거함",
    "lat": 37.5099995952,
    "lng": 126.9407342679,
    "address": "서울특별시 동작구 장승배기로24길 16-1"
  },
  {
    "name": "노량진1동 수거함",
    "lat": 37.5111244783,
    "lng": 126.9421460773,
    "address": "서울특별시 동작구 장승배기로24길 61"
  },
  {
    "name": "노량진1동 수거함",
    "lat": 0.0,
    "lng": 0.0,
    "address": "서울특별시 동작구 장승배기로24가길 42"
  },
  {
    "name": "노량진1동 수거함",
    "lat": 37.5108914296,
    "lng": 126.9431587824,
    "address": "서울특별시 동작구 장승배기로26길 68-3"
  },
  {
    "name": "노량진1동 수거함",
    "lat": 37.5122100664,
    "lng": 126.9424498393,
    "address": "서울특별시 동작구 장승배기로28길 36"
  },
  {
    "name": "노량진2동 수거함",
    "lat": 37.5117812228,
    "lng": 126.939278977,
    "address": "서울특별시 동작구 장승배기로27길 13"
  },
  {
    "name": "노량진2동 수거함",
    "lat": 37.5073571034,
    "lng": 126.9401480072,
    "address": "서울특별시 동작구 장승배기로 110"
  },
  {
    "name": "노량진2동 수거함",
    "lat": 37.5103852834,
    "lng": 126.9363441212,
    "address": "서울특별시 동작구 노량진로6길 63"
  },
  {
    "name": "노량진2동 수거함",
    "lat": 37.5101791787,
    "lng": 126.9359276175,
    "address": "서울특별시 동작구 노량진로6다길 8"
  },
  {
    "name": "노량진2동 수거함",
    "lat": 37.5092497838,
    "lng": 126.9357455235,
    "address": "서울특별시 동작구 노량진로6다길 32"
  },
  {
    "name": "노량진2동 수거함",
    "lat": 37.5120796619,
    "lng": 126.9388066231,
    "address": "서울특별시 동작구 노량진로8길 64"
  },
  {
    "name": "노량진2동 수거함",
    "lat": 37.5090188718,
    "lng": 126.9364404013,
    "address": "서울특별시 동작구 노량진로8나길 84"
  },
  {
    "name": "노량진2동 수거함",
    "lat": 37.5118217429,
    "lng": 126.9359892143,
    "address": "서울특별시 동작구 노량진로10가길 32"
  },
  {
    "name": "노량진2동 수거함",
    "lat": 37.5074024578,
    "lng": 126.935257833,
    "address": "서울특별시 동작구 등용로4길 42"
  },
  {
    "name": "노량진2동 수거함",
    "lat": 37.5089385752,
    "lng": 126.9349197984,
    "address": "서울특별시 동작구 등용로4길 80"
  },
  {
    "name": "상도1동 수거함",
    "lat": 37.506271205,
    "lng": 126.9479306554,
    "address": "서울특별시 동작구 만양로2길 4"
  },
  {
    "name": "상도1동 수거함",
    "lat": 37.5067845422,
    "lng": 126.9503120685,
    "address": "서울특별시 동작구 만양로2길 50"
  },
  {
    "name": "상도1동 수거함",
    "lat": 37.5073631739,
    "lng": 126.9511916085,
    "address": "서울특별시 동작구 만양로2길 74"
  },
  {
    "name": "상도1동 수거함",
    "lat": 37.506988824,
    "lng": 126.9523382354,
    "address": "서울특별시 동작구 매봉로2길 8-2"
  },
  {
    "name": "상도1동 수거함",
    "lat": 37.5074746032,
    "lng": 126.9533599062,
    "address": "서울특별시 동작구 매봉로2길 15"
  },
  {
    "name": "상도1동 수거함",
    "lat": 37.5070890599,
    "lng": 126.9531239926,
    "address": "서울특별시 동작구 매봉로2길 16-4"
  },
  {
    "name": "상도1동 수거함",
    "lat": 37.5079321822,
    "lng": 126.9519085282,
    "address": "서울특별시 동작구 매봉로4길 3"
  },
  {
    "name": "상도1동 수거함",
    "lat": 37.5083824656,
    "lng": 126.9529305707,
    "address": "서울특별시 동작구 매봉로4길13-1"
  },
  {
    "name": "상도1동 수거함",
    "lat": 37.5049274676,
    "lng": 126.9511453542,
    "address": "서울특별시 동작구 흑석로 3"
  },
  {
    "name": "상도1동 수거함",
    "lat": 37.5071561246,
    "lng": 126.9520759623,
    "address": "서울특별시 동작구 강남초등길 1"
  },
  {
    "name": "상도1동 수거함",
    "lat": 37.5062051344,
    "lng": 126.951245519,
    "address": "서울특별시 동작구 강남초등2길 19"
  },
  {
    "name": "상도1동 수거함",
    "lat": 37.5057394175,
    "lng": 126.9512762453,
    "address": "서울특별시 동작구 강남초등4길 14"
  },
  {
    "name": "상도1동 수거함",
    "lat": 37.5055174687,
    "lng": 126.9509830135,
    "address": "서울특별시 동작구 강남초등6길 26"
  },
  {
    "name": "상도1동 수거함",
    "lat": 37.5053205593,
    "lng": 126.9515417315,
    "address": "서울특별시 동작구 강남초등8길 10"
  },
  {
    "name": "상도1동 수거함",
    "lat": 37.5045450954,
    "lng": 126.9488383224,
    "address": "서울특별시 동작구 상도로 265-33"
  },
  {
    "name": "상도1동 수거함",
    "lat": 37.5006261316,
    "lng": 126.9491635306,
    "address": "서울특별시 동작구 상도로38길 3-42"
  },
  {
    "name": "상도1동 수거함",
    "lat": 37.5017199708,
    "lng": 126.94735354,
    "address": "서울특별시 동작구 상도로38길 22"
  },
  {
    "name": "상도1동 수거함",
    "lat": 37.5011300705,
    "lng": 126.9481415221,
    "address": "서울특별시 동작구 상도로38길 42"
  },
  {
    "name": "상도1동 수거함",
    "lat": 37.5009367169,
    "lng": 126.9485589617,
    "address": "서울특별시 동작구 상도로38길 52"
  },
  {
    "name": "상도1동 수거함",
    "lat": 37.5007197821,
    "lng": 126.9488293972,
    "address": "서울특별시 동작구 상도로38길 58"
  },
  {
    "name": "상도1동 수거함",
    "lat": 0.0,
    "lng": 0.0,
    "address": "서울특별시 동작구 상도로38길 88"
  },
  {
    "name": "상도1동 수거함",
    "lat": 37.5023062629,
    "lng": 126.947776775,
    "address": "서울특별시 동작구 상도로38가길 1"
  },
  {
    "name": "상도1동 수거함",
    "lat": 37.5031417288,
    "lng": 126.9491384145,
    "address": "서울특별시 동작구 상도로39길 16"
  },
  {
    "name": "상도1동 수거함",
    "lat": 37.5030443885,
    "lng": 126.9501205906,
    "address": "서울특별시 동작구 상도로39길 47"
  },
  {
    "name": "상도1동 수거함",
    "lat": 37.5023052286,
    "lng": 126.9497546607,
    "address": "서울특별시 동작구 상도로39가길 9"
  },
  {
    "name": "상도1동 수거함",
    "lat": 37.5038275095,
    "lng": 126.950470326,
    "address": "서울특별시 동작구 상도로41가길 20"
  },
  {
    "name": "상도1동 수거함",
    "lat": 37.5028774735,
    "lng": 126.9508641813,
    "address": "서울특별시 동작구 상도로41다길 13"
  },
  {
    "name": "상도1동 수거함",
    "lat": 37.5039370805,
    "lng": 126.9507067364,
    "address": "서울특별시 동작구 상도로41라길 21"
  },
  {
    "name": "상도1동 수거함",
    "lat": 37.5005542913,
    "lng": 126.952332826,
    "address": "서울특별시 동작구 상도로47길 32"
  },
  {
    "name": "상도1동 수거함",
    "lat": 37.5040382446,
    "lng": 126.9519734549,
    "address": "서울특별시 동작구 상도로47길 108"
  },
  {
    "name": "상도1동 수거함",
    "lat": 37.5000699379,
    "lng": 126.9524008747,
    "address": "서울특별시 동작구 상도로47나길 30"
  },
  {
    "name": "상도1동 수거함",
    "lat": 37.5004406812,
    "lng": 126.9530245584,
    "address": "서울특별시 동작구 상도로47다길 1"
  },
  {
    "name": "상도1동 수거함",
    "lat": 37.5034940773,
    "lng": 126.9534234536,
    "address": "서울특별시 동작구 상도로47바길 31"
  },
  {
    "name": "상도1동 수거함",
    "lat": 37.5036534971,
    "lng": 126.9535044438,
    "address": "서울특별시 동작구 상도로47바길 41"
  },
  {
    "name": "상도1동 수거함",
    "lat": 37.5031040804,
    "lng": 126.953546177,
    "address": "서울특별시 동작구 상도로47사길 6"
  },
  {
    "name": "상도1동 수거함",
    "lat": 37.4978734184,
    "lng": 126.9507487195,
    "address": "서울특별시 동작구 상도로50길 19"
  },
  {
    "name": "상도1동 수거함",
    "lat": 37.4974371122,
    "lng": 126.9502258714,
    "address": "서울특별시 동작구 상도로50길 34"
  },
  {
    "name": "상도1동 수거함",
    "lat": 37.497069482,
    "lng": 126.9539544211,
    "address": "서울특별시 동작구 상도로55길 6"
  },
  {
    "name": "상도1동 수거함",
    "lat": 37.4941403458,
    "lng": 126.9540486064,
    "address": "서울특별시 동작구 상도로60길 12"
  },
  {
    "name": "상도1동 수거함",
    "lat": 37.4934955506,
    "lng": 126.9544244264,
    "address": "서울특별시 동작구 상도로60가길 16"
  },
  {
    "name": "상도1동 수거함",
    "lat": 37.4944233832,
    "lng": 126.9590316955,
    "address": "서울특별시 동작구 상도로61길 74"
  },
  {
    "name": "상도1동 수거함",
    "lat": 37.4978469327,
    "lng": 126.9516303582,
    "address": "서울특별시 동작구 상도로62길 91"
  },
  {
    "name": "상도1동 수거함",
    "lat": 37.4948835891,
    "lng": 126.9535945795,
    "address": "서울특별시 동작구 상도로62가길 9"
  },
  {
    "name": "상도1동 수거함",
    "lat": 37.4936347051,
    "lng": 126.9542922644,
    "address": "서울특별시 동작구 상도로66길 21"
  },
  {
    "name": "상도1동 수거함",
    "lat": 37.4923700351,
    "lng": 126.9556679517,
    "address": "서울특별시 동작구 상도로68길 29"
  },
  {
    "name": "상도2동 수거함",
    "lat": 0.0,
    "lng": 0.0,
    "address": "서울특별시 동작구 장승배기로 55"
  },
  {
    "name": "상도2동 수거함",
    "lat": 37.5009000651,
    "lng": 126.9408969608,
    "address": "서울특별시 동작구 장승배기로3길 8"
  },
  {
    "name": "상도2동 수거함",
    "lat": 37.5056016972,
    "lng": 126.9461862435,
    "address": "서울특별시 동작구 만양로 7-9"
  },
  {
    "name": "상도2동 수거함",
    "lat": 37.5065421142,
    "lng": 126.9470678575,
    "address": "서울특별시 동작구 만양로 17-4"
  },
  {
    "name": "상도2동 수거함",
    "lat": 37.506006611,
    "lng": 126.9477972696,
    "address": "서울특별시 동작구 만양로 20-8"
  },
  {
    "name": "상도2동 수거함",
    "lat": 37.5062633714,
    "lng": 126.9477382793,
    "address": "서울특별시 동작구 만양로2길 2"
  },
  {
    "name": "상도2동 수거함",
    "lat": 37.5067845422,
    "lng": 126.9503120685,
    "address": "서울특별시 동작구 만양로2길 50"
  },
  {
    "name": "상도2동 수거함",
    "lat": 37.5073631739,
    "lng": 126.9511916085,
    "address": "서울특별시 동작구 만양로2길 74"
  },
  {
    "name": "상도2동 수거함",
    "lat": 37.5044437003,
    "lng": 126.9360165499,
    "address": "서울특별시 동작구 상도로15길 97"
  },
  {
    "name": "상도2동 수거함",
    "lat": 37.5049675958,
    "lng": 126.9379704206,
    "address": "서울특별시 동작구 상도로15길 131"
  },
  {
    "name": "상도2동 수거함",
    "lat": 37.5038031851,
    "lng": 126.9331061356,
    "address": "서울특별시 동작구 상도로15마길 34"
  },
  {
    "name": "상도2동 수거함",
    "lat": 37.5049606507,
    "lng": 126.9349419126,
    "address": "서울특별시 동작구 상도로15바길 24"
  },
  {
    "name": "상도2동 수거함",
    "lat": 37.5053215268,
    "lng": 126.935312899,
    "address": "서울특별시 동작구 상도로15바길 28"
  },
  {
    "name": "상도2동 수거함",
    "lat": 37.5041739781,
    "lng": 126.9346067004,
    "address": "서울특별시 동작구 상도로15아길 15"
  },
  {
    "name": "상도2동 수거함",
    "lat": 37.5050950348,
    "lng": 126.9351861993,
    "address": "서울특별시 동작구 상도로15차길 19"
  },
  {
    "name": "상도2동 수거함",
    "lat": 37.5055543029,
    "lng": 126.9358939087,
    "address": "서울특별시 동작구 상도로15카길 23"
  },
  {
    "name": "상도2동 수거함",
    "lat": 37.5061158284,
    "lng": 126.9458306311,
    "address": "서울특별시 동작구 상도로31길 63"
  },
  {
    "name": "상도2동 수거함",
    "lat": 37.5041171005,
    "lng": 126.9457697594,
    "address": "서울특별시 동작구 상도로34길 15"
  },
  {
    "name": "상도2동 수거함",
    "lat": 0.0,
    "lng": 0.0,
    "address": "서울특별시 동작구 상도로34길 39"
  },
  {
    "name": "상도2동 수거함",
    "lat": 37.5035184816,
    "lng": 126.9465806305,
    "address": "서울특별시 동작구 상도로36길 8"
  },
  {
    "name": "상도2동 수거함",
    "lat": 37.505165906,
    "lng": 126.9367788886,
    "address": "서울특별시 동작구 등용로 13"
  },
  {
    "name": "상도2동 수거함",
    "lat": 37.5064989929,
    "lng": 126.9358684452,
    "address": "서울특별시 동작구 등용로 24-5"
  },
  {
    "name": "상도2동 수거함",
    "lat": 0.0,
    "lng": 0.0,
    "address": "서울특별시 동작구 등용로2길 5-8"
  },
  {
    "name": "상도2동 수거함",
    "lat": 37.5016304458,
    "lng": 126.9376170545,
    "address": "서울특별시 동작구 성대로37길 73"
  },
  {
    "name": "상도2동 수거함",
    "lat": 37.499826879,
    "lng": 126.9448127337,
    "address": "서울특별시 동작구 양녕로 210-5"
  },
  {
    "name": "상도2동 수거함",
    "lat": 37.5069833438,
    "lng": 126.9506220573,
    "address": "서울특별시 동작구 매봉로 31-16"
  },
  {
    "name": "상도3동 수거함",
    "lat": 37.495541993,
    "lng": 126.9309860766,
    "address": "서울특별시 동작구 국사봉10길14"
  },
  {
    "name": "상도3동 수거함",
    "lat": 37.4933753887,
    "lng": 126.9321557303,
    "address": "서울특별시 동작구 국사봉10길68"
  },
  {
    "name": "상도3동 수거함",
    "lat": 37.4952783536,
    "lng": 126.9342961304,
    "address": "서울특별시 동작구 국사봉1길165"
  },
  {
    "name": "상도3동 수거함",
    "lat": 37.4949734465,
    "lng": 126.9349356501,
    "address": "서울특별시 동작구 국사봉1길181"
  },
  {
    "name": "상도3동 수거함",
    "lat": 37.4944575005,
    "lng": 126.9353744006,
    "address": "서울특별시 동작구 국사봉1길200 "
  },
  {
    "name": "상도3동 수거함",
    "lat": 37.4939522874,
    "lng": 126.9356705414,
    "address": "서울특별시 동작구 국사봉1길210"
  },
  {
    "name": "상도3동 수거함",
    "lat": 37.4958312042,
    "lng": 126.9295916063,
    "address": "서울특별시 동작구 국사봉2바길3"
  },
  {
    "name": "상도3동 수거함",
    "lat": 37.4957243514,
    "lng": 126.9300577223,
    "address": "서울특별시 동작구 국사봉6길39"
  },
  {
    "name": "상도3동 수거함",
    "lat": 37.4955801253,
    "lng": 126.9297961829,
    "address": "서울특별시 동작구 국사봉6길42"
  },
  {
    "name": "상도3동 수거함",
    "lat": 37.4954350751,
    "lng": 126.930578738,
    "address": "서울특별시 동작구 국사봉8길29"
  },
  {
    "name": "상도3동 수거함",
    "lat": 37.4940735543,
    "lng": 126.9307160343,
    "address": "서울특별시 동작구 국사봉8길64-12"
  },
  {
    "name": "상도3동 수거함",
    "lat": 37.4939024138,
    "lng": 126.9308025858,
    "address": "서울특별시 동작구 국사봉8길64-8"
  },
  {
    "name": "상도3동 수거함",
    "lat": 37.4954895251,
    "lng": 126.9321801662,
    "address": "서울특별시 동작구 국사봉길109"
  },
  {
    "name": "상도3동 수거함",
    "lat": 37.4948300175,
    "lng": 126.9327041051,
    "address": "서울특별시 동작구 국사봉길125"
  },
  {
    "name": "상도3동 수거함",
    "lat": 37.4942344406,
    "lng": 126.9339610815,
    "address": "서울특별시 동작구 국사봉길160"
  },
  {
    "name": "상도3동 수거함",
    "lat": 37.4956528608,
    "lng": 126.9315261723,
    "address": "서울특별시 동작구 국사봉길98"
  },
  {
    "name": "상도3동 수거함",
    "lat": 37.5021031091,
    "lng": 126.9297452912,
    "address": "서울특별시 동작구 상도로13길25"
  },
  {
    "name": "상도3동 수거함",
    "lat": 37.5026805303,
    "lng": 126.9298408797,
    "address": "서울특별시 동작구 상도로13길32"
  },
  {
    "name": "상도3동 수거함",
    "lat": 37.5031470853,
    "lng": 126.9294113632,
    "address": "서울특별시 동작구 상도로13길37"
  },
  {
    "name": "상도3동 수거함",
    "lat": 37.5025918661,
    "lng": 126.9293785233,
    "address": "서울특별시 동작구 상도로13나길 30"
  },
  {
    "name": "상도3동 수거함",
    "lat": 37.5012788356,
    "lng": 126.9295377489,
    "address": "서울특별시 동작구 상도로13나길15"
  },
  {
    "name": "상도3동 수거함",
    "lat": 37.5004822069,
    "lng": 126.9297574403,
    "address": "서울특별시 동작구 상도로13나길7"
  },
  {
    "name": "상도3동 수거함",
    "lat": 37.501250078,
    "lng": 126.93088413,
    "address": "서울특별시 동작구 상도로13다길 6"
  },
  {
    "name": "상도3동 수거함",
    "lat": 37.5022651808,
    "lng": 126.9301687857,
    "address": "서울특별시 동작구 상도로13라길13"
  },
  {
    "name": "상도3동 수거함",
    "lat": 37.4972838015,
    "lng": 126.9341119664,
    "address": "서울특별시 동작구 성대로10가길12"
  },
  {
    "name": "상도3동 수거함",
    "lat": 37.4938644359,
    "lng": 126.9364971211,
    "address": "서울특별시 동작구 성대로6가길149"
  },
  {
    "name": "상도3동 수거함",
    "lat": 37.4977805469,
    "lng": 126.9328681466,
    "address": "서울특별시 동작구 성대로6가길24"
  },
  {
    "name": "상도3동 수거함",
    "lat": 37.4973857389,
    "lng": 126.9330498895,
    "address": "서울특별시 동작구 성대로6가길34"
  },
  {
    "name": "상도3동 수거함",
    "lat": 0.0,
    "lng": 0.0,
    "address": "서울특별시 동작구 성대로6가길68"
  },
  {
    "name": "상도3동 수거함",
    "lat": 0.0,
    "lng": 0.0,
    "address": "서울특별시 동작구 성대로6마길1"
  },
  {
    "name": "상도3동 수거함",
    "lat": 37.4956770346,
    "lng": 126.935909929,
    "address": "서울특별시 동작구 성대로6바길20"
  },
  {
    "name": "상도3동 수거함",
    "lat": 37.4956770346,
    "lng": 126.935909929,
    "address": "서울특별시 동작구 성대로6바길20"
  },
  {
    "name": "상도3동 수거함",
    "lat": 37.4936563296,
    "lng": 126.9321678019,
    "address": "서울특별시 동작구 국사봉10길67"
  },
  {
    "name": "상도3동 수거함",
    "lat": 37.4942277932,
    "lng": 126.9330364248,
    "address": "서울특별시 동작구 국사봉18길10"
  },
  {
    "name": "상도3동 수거함",
    "lat": 37.4952792105,
    "lng": 126.9337330919,
    "address": "서울특별시 동작구 국사봉1길158"
  },
  {
    "name": "상도3동 수거함",
    "lat": 37.4933726781,
    "lng": 126.9361845331,
    "address": "서울특별시 동작구 국사봉1길221-8"
  },
  {
    "name": "상도3동 수거함",
    "lat": 37.4949214516,
    "lng": 126.9298842118,
    "address": "서울특별시 동작구 국사봉6길56"
  },
  {
    "name": "상도3동 수거함",
    "lat": 37.4950180536,
    "lng": 126.9306715121,
    "address": "서울특별시 동작구 국사봉8길39"
  },
  {
    "name": "상도3동 수거함",
    "lat": 37.495346916,
    "lng": 126.9322153507,
    "address": "서울특별시 동작구 국사봉길109-2"
  },
  {
    "name": "상도3동 수거함",
    "lat": 37.4979108687,
    "lng": 126.9302863794,
    "address": "서울특별시 동작구 국사봉길43-2"
  },
  {
    "name": "상도3동 수거함",
    "lat": 37.5013504794,
    "lng": 126.9289592178,
    "address": "서울특별시 동작구 상도로11길17"
  },
  {
    "name": "상도3동 수거함",
    "lat": 37.5022136275,
    "lng": 126.9299899207,
    "address": "서울특별시 동작구 상도로13길26"
  },
  {
    "name": "상도3동 수거함",
    "lat": 37.500922063,
    "lng": 126.9303406909,
    "address": "서울특별시 동작구 상도로13다길1"
  },
  {
    "name": "상도3동 수거함",
    "lat": 37.5023574995,
    "lng": 126.9305691626,
    "address": "서울특별시 동작구 상도로13다길19"
  },
  {
    "name": "상도3동 수거함",
    "lat": 37.5025829211,
    "lng": 126.9314778863,
    "address": "서울특별시 동작구 상도로15가길38"
  },
  {
    "name": "상도3동 수거함",
    "lat": 37.4970224412,
    "lng": 126.9349640662,
    "address": "서울특별시 동작구 성대로10길19"
  },
  {
    "name": "상도3동 수거함",
    "lat": 37.4965744106,
    "lng": 126.9358609882,
    "address": "서울특별시 동작구 성대로10길37"
  },
  {
    "name": "상도3동 수거함",
    "lat": 37.4976402117,
    "lng": 126.9358621122,
    "address": "서울특별시 동작구 성대로 96"
  },
  {
    "name": "상도4동 수거함",
    "lat": 37.5015825909,
    "lng": 126.9347601645,
    "address": "서울특별시 동작구 성대로1가길 4"
  },
  {
    "name": "상도4동 수거함",
    "lat": 37.4945975795,
    "lng": 126.9383574819,
    "address": "서울특별시 동작구 성대로10길 97-4"
  },
  {
    "name": "상도4동 수거함",
    "lat": 37.4989648437,
    "lng": 126.9343363263,
    "address": "서울특별시 동작구 성대로11길 35"
  },
  {
    "name": "상도4동 수거함",
    "lat": 37.5002523068,
    "lng": 126.9335584969,
    "address": "서울특별시 동작구 성대로11길 69"
  },
  {
    "name": "상도4동 수거함",
    "lat": 37.4974085136,
    "lng": 126.9354407269,
    "address": "서울특별시 동작구 성대로12길 5"
  },
  {
    "name": "상도3동 수거함",
    "lat": 37.4954357019,
    "lng": 126.9394140034,
    "address": "서울특별시 동작구 성대로16길 79"
  },
  {
    "name": "상도4동 수거함",
    "lat": 37.4995831875,
    "lng": 126.9347941344,
    "address": "서울특별시 동작구 성대로17길 49"
  },
  {
    "name": "상도4동 수거함",
    "lat": 37.4981934238,
    "lng": 126.9373627543,
    "address": "서울특별시 동작구 성대로21길 2"
  },
  {
    "name": "상도4동 수거함",
    "lat": 37.5006036754,
    "lng": 126.9362961068,
    "address": "서울특별시 동작구 성대로21나길 6"
  },
  {
    "name": "상도4동 수거함",
    "lat": 37.4992724368,
    "lng": 126.9388494192,
    "address": "서울특별시 동작구 성대로27길 15"
  },
  {
    "name": "상도4동 수거함",
    "lat": 37.5002138799,
    "lng": 126.938122501,
    "address": "서울특별시 동작구 성대로29길 45"
  },
  {
    "name": "상도4동 수거함",
    "lat": 37.4976517187,
    "lng": 126.9430179623,
    "address": "서울특별시 동작구 양녕로 183-1"
  },
  {
    "name": "상도4동 수거함",
    "lat": 37.4951809514,
    "lng": 126.9442833085,
    "address": "서울특별시 동작구 양녕로20길 64"
  },
  {
    "name": "상도4동 수거함",
    "lat": 37.4960286016,
    "lng": 126.9444388473,
    "address": "서울특별시 동작구 양녕로20길 79"
  },
  {
    "name": "상도4동 수거함",
    "lat": 37.4946423571,
    "lng": 126.9430187787,
    "address": "서울특별시 동작구 양녕로22길 1"
  },
  {
    "name": "상도4동 수거함",
    "lat": 37.4980513146,
    "lng": 126.9464847828,
    "address": "서울특별시 동작구 양녕로22라길 62"
  },
  {
    "name": "상도4동 수거함",
    "lat": 37.4961528682,
    "lng": 126.9462295504,
    "address": "서울특별시 동작구 양녕로22마길 23"
  },
  {
    "name": "상도4동 수거함",
    "lat": 37.4962654245,
    "lng": 126.9395618123,
    "address": "서울특별시 동작구 양녕로23길 67"
  },
  {
    "name": "상도4동 수거함",
    "lat": 0.0,
    "lng": 0.0,
    "address": "서울특별시 동작구 양녕로25 43"
  },
  {
    "name": "상도4동 수거함",
    "lat": 37.4961900547,
    "lng": 126.9408961495,
    "address": "서울특별시 동작구 양녕로25길 71"
  },
  {
    "name": "상도4동 수거함",
    "lat": 37.4981846044,
    "lng": 126.9428945188,
    "address": "서울특별시 동작구 양녕로25나길 2"
  },
  {
    "name": "상도4동 수거함",
    "lat": 37.4973648507,
    "lng": 126.9445588589,
    "address": "서울특별시 동작구 양녕로26나길 8"
  },
  {
    "name": "상도4동 수거함",
    "lat": 37.4991169385,
    "lng": 126.9415495285,
    "address": "서울특별시 동작구 양녕로27길 41"
  },
  {
    "name": "상도4동 수거함",
    "lat": 37.4983926949,
    "lng": 126.9448930633,
    "address": "서울특별시 동작구 양녕로28길 22"
  },
  {
    "name": "상도4동 수거함",
    "lat": 37.4980564626,
    "lng": 126.946115325,
    "address": "서울특별시 동작구 양녕로28길 46"
  },
  {
    "name": "상도4동 수거함",
    "lat": 37.4990958213,
    "lng": 126.9450461204,
    "address": "서울특별시 동작구 양녕로30길 12"
  },
  {
    "name": "상도4동 수거함",
    "lat": 37.4986498552,
    "lng": 126.9453091496,
    "address": "서울특별시 동작구 양녕로30길 29"
  },
  {
    "name": "흑석동 수거함",
    "lat": 37.5054631103,
    "lng": 126.9559439732,
    "address": "서울특별시 동작구 흑석로6길 31"
  },
  {
    "name": "흑석동 수거함",
    "lat": 37.5054805389,
    "lng": 126.9565362566,
    "address": "서울특별시 동작구 흑석로6나길 10"
  },
  {
    "name": "흑석동 수거함",
    "lat": 0.0,
    "lng": 0.0,
    "address": "서울특별시 동작구 흑석로6나길 3"
  },
  {
    "name": "흑석동 수거함",
    "lat": 37.5068373059,
    "lng": 126.9568734125,
    "address": "서울특별시 동작구 흑석로5길 9"
  },
  {
    "name": "흑석동 수거함",
    "lat": 37.5078464438,
    "lng": 126.9574042957,
    "address": "서울특별시 동작구 흑석로7길 25"
  },
  {
    "name": "흑석동 수거함",
    "lat": 37.5073795457,
    "lng": 126.956179793,
    "address": "서울특별시 동작구 흑석로3길 22"
  },
  {
    "name": "흑석동 수거함",
    "lat": 37.5077766744,
    "lng": 126.9560874964,
    "address": "서울특별시 동작구 흑석로3길 25"
  },
  {
    "name": "흑석동 수거함",
    "lat": 37.5091830418,
    "lng": 126.9560581705,
    "address": "서울특별시 동작구 흑석로9길 83"
  },
  {
    "name": "흑석동 수거함",
    "lat": 37.5093253859,
    "lng": 126.9567508471,
    "address": "서울특별시 동작구 흑석로3길 47"
  },
  {
    "name": "흑석동 수거함",
    "lat": 37.5096233275,
    "lng": 126.9579414355,
    "address": "서울특별시 동작구 흑석로3길 59"
  },
  {
    "name": "흑석동 수거함",
    "lat": 37.5104350843,
    "lng": 126.9583134359,
    "address": "서울특별시 동작구 흑석로3길 71"
  },
  {
    "name": "흑석동 수거함",
    "lat": 37.5089046793,
    "lng": 126.9589460806,
    "address": "서울특별시 동작구 흑석로11길 39"
  },
  {
    "name": "흑석동 수거함",
    "lat": 37.5089357572,
    "lng": 126.9579030269,
    "address": "서울특별시 동작구 흑석로5길 78"
  },
  {
    "name": "흑석동 수거함",
    "lat": 37.5084085328,
    "lng": 126.9595753142,
    "address": "서울특별시 동작구 흑석로13마길 35"
  },
  {
    "name": "흑석동 수거함",
    "lat": 37.5078358353,
    "lng": 126.9592584866,
    "address": "서울특별시 동작구 흑석로9길 18"
  },
  {
    "name": "흑석동 수거함",
    "lat": 37.5083235637,
    "lng": 126.9575092096,
    "address": "서울특별시 동작구 흑석로9길 49"
  },
  {
    "name": "흑석동 수거함",
    "lat": 37.506867604,
    "lng": 126.9600162171,
    "address": "서울특별시 동작구 흑석로10길 12"
  },
  {
    "name": "흑석동 수거함",
    "lat": 37.5066738932,
    "lng": 126.965769362,
    "address": "서울특별시 동작구 현충로6길 11"
  },
  {
    "name": "흑석동 수거함",
    "lat": 37.5070169544,
    "lng": 126.9641117219,
    "address": "서울특별시 동작구 서달로14라길 15"
  },
  {
    "name": "사당1동 수거함",
    "lat": 37.48053287,
    "lng": 126.9808857,
    "address": "서울특별시 동작구 사당로30길 97"
  },
  {
    "name": "사당1동 수거함",
    "lat": 37.4807232854,
    "lng": 126.9799693993,
    "address": "서울특별시 동작구 동작대로9길 28"
  },
  {
    "name": "사당1동 수거함",
    "lat": 37.48135866,
    "lng": 126.9809745,
    "address": "서울특별시 동작구 사당로30길 79"
  },
  {
    "name": "사당1동 수거함",
    "lat": 37.48189792,
    "lng": 126.9804428,
    "address": "서울특별시 동작구 동작대로13길 12"
  },
  {
    "name": "사당1동 수거함",
    "lat": 37.4786012704,
    "lng": 126.976300802,
    "address": "서울특별시 동작구 남부순환로269길 56"
  },
  {
    "name": "사당1동 수거함",
    "lat": 37.4781010498,
    "lng": 126.9750830011,
    "address": "서울특별시 동작구 남부순환로257가길 24"
  },
  {
    "name": "사당1동 수거함",
    "lat": 37.4788221274,
    "lng": 126.9750820834,
    "address": "서울특별시 동작구 남부순환로265길 68"
  },
  {
    "name": "사당1동 수거함",
    "lat": 37.47736597,
    "lng": 126.9728923,
    "address": "서울특별시 동작구 남부순환로257가길 2"
  },
  {
    "name": "사당1동 수거함",
    "lat": 37.47675422,
    "lng": 126.9722515,
    "address": "서울특별시 동작구 남부순환로259길 18"
  },
  {
    "name": "사당1동 수거함",
    "lat": 37.47722489,
    "lng": 126.9714373,
    "address": "서울특별시 동작구 남부순환로255나길 9"
  },
  {
    "name": "사당1동 수거함",
    "lat": 37.47747463,
    "lng": 126.9740465,
    "address": "서울특별시 동작구 남부순환로261길 20"
  },
  {
    "name": "사당1동 수거함",
    "lat": 37.47640798,
    "lng": 126.9738885,
    "address": "서울특별시 동작구 남부순환로 2027"
  },
  {
    "name": "사당1동 수거함",
    "lat": 37.47601398,
    "lng": 126.9720094,
    "address": "서울특별시 동작구 남부순환로 2009"
  },
  {
    "name": "사당1동 수거함",
    "lat": 37.48071539,
    "lng": 126.9801562,
    "address": "서울특별시 동작구 동작대로 9길 26"
  },
  {
    "name": "사당1동 수거함",
    "lat": 37.4819535174,
    "lng": 126.9774382818,
    "address": "서울특별시 동작구 동작대로 13길 38-1"
  },
  {
    "name": "사당1동 수거함",
    "lat": 37.48280316,
    "lng": 126.9778784,
    "address": "서울특별시 동작구 동작대로 17길 35"
  },
  {
    "name": "사당1동 수거함",
    "lat": 37.4801505408,
    "lng": 126.9771389896,
    "address": "서울특별시 동작구 사당로 22길 75"
  },
  {
    "name": "사당1동 수거함",
    "lat": 37.4782321903,
    "lng": 126.9748635143,
    "address": "서울특별시 동작구 남부순환로 257가길 23"
  },
  {
    "name": "사당1동 수거함",
    "lat": 0.0,
    "lng": 0.0,
    "address": "서울특별시 동작구 남부순환로 258가길 17"
  },
  {
    "name": "사당1동 수거함",
    "lat": 37.4766223427,
    "lng": 126.9731621329,
    "address": "서울특별시 동작구 남부순환로 259가길 13"
  },
  {
    "name": "사당1동 수거함",
    "lat": 37.47675422,
    "lng": 126.9722515,
    "address": "서울특별시 동작구 남부순환로 259길 18"
  },
  {
    "name": "사당1동 수거함",
    "lat": 37.47731106,
    "lng": 126.9723114,
    "address": "서울특별시 동작구 남부순환로 255가길 15"
  },
  {
    "name": "사당1동 수거함",
    "lat": 37.47722489,
    "lng": 126.9714373,
    "address": "서울특별시 동작구 남부순환로 255나길 9"
  },
  {
    "name": "사당1동 수거함",
    "lat": 37.47661699,
    "lng": 126.9711043,
    "address": "서울특별시 동작구 남부순환로 255길 10"
  },
  {
    "name": "사당1동 수거함",
    "lat": 37.48289687,
    "lng": 126.9810252,
    "address": "서울특별시 동작구 사당로30길 43"
  },
  {
    "name": "사당1동 수거함",
    "lat": 37.4773452048,
    "lng": 126.9704440209,
    "address": "서울특별시 동작구 남부순환로 255라길 4"
  },
  {
    "name": "사당1동 수거함",
    "lat": 37.4775775619,
    "lng": 126.9707526848,
    "address": "서울특별시 동작구 남부순환로 255마길 12"
  },
  {
    "name": "사당1동 수거함",
    "lat": 37.4775801801,
    "lng": 126.9715120797,
    "address": "서울특별시 동작구 남부순환로 255다길 22"
  },
  {
    "name": "사당1동 수거함",
    "lat": 37.478029035,
    "lng": 126.9725350707,
    "address": "서울특별시 동작구 남부순환로 257길 30"
  },
  {
    "name": "사당1동 수거함",
    "lat": 37.4782968292,
    "lng": 126.9746129586,
    "address": "서울특별시 동작구 남부순환로 265길 58"
  },
  {
    "name": "사당1동 수거함",
    "lat": 37.4786923861,
    "lng": 126.9746774936,
    "address": "서울특별시 동작구 사당로 20길 109"
  },
  {
    "name": "사당1동 수거함",
    "lat": 37.4790114664,
    "lng": 126.9731927086,
    "address": "서울특별시 동작구 남부순환로 269길 124"
  },
  {
    "name": "사당1동 수거함",
    "lat": 37.479024939,
    "lng": 126.9730059319,
    "address": "서울특별시 동작구 사당로 20바길 31"
  },
  {
    "name": "사당1동 수거함",
    "lat": 37.4797378021,
    "lng": 126.9741455371,
    "address": "서울특별시 동작구 남부순환로 269길 102"
  },
  {
    "name": "사당1동 수거함",
    "lat": 37.4791778714,
    "lng": 126.9747777255,
    "address": "서울특별시 동작구 남부순환로269길 87"
  },
  {
    "name": "사당1동 수거함",
    "lat": 37.4806274948,
    "lng": 126.9751544078,
    "address": "서울특별시 동작구 사당로 22나길 36"
  },
  {
    "name": "사당1동 수거함",
    "lat": 37.48271411,
    "lng": 126.9808114,
    "address": "서울특별시 동작구 동작대로17길 7"
  },
  {
    "name": "사당1동 수거함",
    "lat": 37.48116599,
    "lng": 126.9796886,
    "address": "서울특별시 동작구 동작대로11길 33"
  },
  {
    "name": "사당1동 수거함",
    "lat": 37.48073809,
    "lng": 126.9796019,
    "address": "서울특별시 동작구 동작대로9길 36"
  },
  {
    "name": "사당1동 수거함",
    "lat": 37.4798556263,
    "lng": 126.9698463054,
    "address": "서울특별시 동작구 사당로 16자길 36"
  },
  {
    "name": "사당2동 수거함",
    "lat": 37.48503068,
    "lng": 126.9796248,
    "address": "서울특별시 동작구 동작대로25길 54"
  },
  {
    "name": "사당2동 수거함",
    "lat": 37.4880639303,
    "lng": 126.97915061,
    "address": "서울특별시 동작구 동작대로27길 57"
  },
  {
    "name": "사당2동 수거함",
    "lat": 0.0,
    "lng": 0.0,
    "address": "서울특별시 동작구 동작대로27라길 4"
  },
  {
    "name": "사당2동 수거함",
    "lat": 37.4887124036,
    "lng": 126.9792525344,
    "address": "서울특별시 동작구 동작대로29길 52"
  },
  {
    "name": "사당2동 수거함",
    "lat": 37.488452076,
    "lng": 126.978107298,
    "address": "서울특별시 동작구 동작대로29길 69"
  },
  {
    "name": "사당2동 수거함",
    "lat": 37.4908187438,
    "lng": 126.9817677747,
    "address": "서울특별시 동작구 동작대로33가길 27"
  },
  {
    "name": "사당2동 수거함",
    "lat": 37.4924521744,
    "lng": 126.9790187849,
    "address": "서울특별시 동작구 동작대로35길 71"
  },
  {
    "name": "사당2동 수거함",
    "lat": 37.4909530732,
    "lng": 126.9795029433,
    "address": "서울특별시 동작구 동작대로35가길 42"
  },
  {
    "name": "사당2동 수거함",
    "lat": 37.4911336424,
    "lng": 126.9790309137,
    "address": "서울특별시 동작구 동작대로35가길 49"
  },
  {
    "name": "사당2동 수거함",
    "lat": 37.4912916314,
    "lng": 126.9787641221,
    "address": "서울특별시 동작구 동작대로35가길 55"
  },
  {
    "name": "사당2동 수거함",
    "lat": 37.4923326348,
    "lng": 126.9772036894,
    "address": "서울특별시 동작구 동작대로35가길 95"
  },
  {
    "name": "사당2동 수거함",
    "lat": 37.4932699716,
    "lng": 126.9787555333,
    "address": "서울특별시 동작구 동작대로35아길 17"
  },
  {
    "name": "사당2동 수거함",
    "lat": 37.494243182,
    "lng": 126.9794498008,
    "address": "서울특별시 동작구 동작대로39가길 31"
  },
  {
    "name": "사당3동 수거함",
    "lat": 37.4864141521,
    "lng": 126.9712667577,
    "address": "서울특별시 동작구 사당로9길 17"
  },
  {
    "name": "사당3동 수거함",
    "lat": 37.4866184949,
    "lng": 126.9687587992,
    "address": "서울특별시 동작구 사당로9가길 37"
  },
  {
    "name": "사당3동 수거함",
    "lat": 37.4858086492,
    "lng": 126.9704336768,
    "address": "서울특별시 동작구 사당로9나길 1"
  },
  {
    "name": "사당3동 수거함",
    "lat": 37.4860411442,
    "lng": 126.9702137798,
    "address": "서울특별시 동작구 사당로9나길 7"
  },
  {
    "name": "사당3동 수거함",
    "lat": 37.4868840684,
    "lng": 126.9699804082,
    "address": "서울특별시 동작구 사당로9다길 26"
  },
  {
    "name": "사당3동 수거함",
    "lat": 37.4870941184,
    "lng": 126.9700791475,
    "address": "서울특별시 동작구 사당로9다길 30-6"
  },
  {
    "name": "사당3동 수거함",
    "lat": 37.487326845,
    "lng": 126.9704217714,
    "address": "서울특별시 동작구 사당로13길 83"
  },
  {
    "name": "사당3동 수거함",
    "lat": 37.4858799798,
    "lng": 126.9725530014,
    "address": "서울특별시 동작구 사당로17길 65"
  },
  {
    "name": "사당3동 수거함",
    "lat": 37.4866969504,
    "lng": 126.9715226388,
    "address": "서울특별시 동작구 사당로17길 95"
  },
  {
    "name": "사당3동 수거함",
    "lat": 37.4903852966,
    "lng": 126.970705854,
    "address": "서울특별시 동작구 사당로23길 185"
  },
  {
    "name": "사당3동 수거함",
    "lat": 37.4912904472,
    "lng": 126.9703385673,
    "address": "서울특별시 동작구 사당로23길 208"
  },
  {
    "name": "사당3동 수거함",
    "lat": 37.4903175545,
    "lng": 126.9700416778,
    "address": "서울특별시 동작구 사당로23바길 24"
  },
  {
    "name": "사당3동 수거함",
    "lat": 37.4912259475,
    "lng": 126.9689837115,
    "address": "서울특별시 동작구 사당로23사길 38"
  },
  {
    "name": "사당3동 수거함",
    "lat": 37.4909571111,
    "lng": 126.9715873972,
    "address": "서울특별시 동작구 사당로27길 190"
  },
  {
    "name": "사당3동 수거함",
    "lat": 37.4920672029,
    "lng": 126.9699708708,
    "address": "서울특별시 동작구 사당로27길 235"
  },
  {
    "name": "사당3동 수거함",
    "lat": 37.4855599717,
    "lng": 126.9783330339,
    "address": "서울특별시 동작구 사당로29길 26"
  },
  {
    "name": "사당3동 수거함",
    "lat": 37.4857223138,
    "lng": 126.9787208106,
    "address": "서울특별시 동작구 사당로29나길 7"
  },
  {
    "name": "사당3동 수거함",
    "lat": 37.4860140551,
    "lng": 126.979197764,
    "address": "서울특별시 동작구 사당로29나길 14"
  },
  {
    "name": "사당3동 수거함",
    "lat": 37.4876528247,
    "lng": 126.9759588429,
    "address": "서울특별시 동작구 사당로29다길 83"
  },
  {
    "name": "사당4동 수거함",
    "lat": 37.4794567931,
    "lng": 126.972229629,
    "address": "서울특별시 동작구 사당로 20다길 34"
  },
  {
    "name": "사당4동 수거함",
    "lat": 37.4797741402,
    "lng": 126.9730584611,
    "address": "서울특별시 동작구 사당로 20사길 22"
  },
  {
    "name": "사당4동 수거함",
    "lat": 37.480001449,
    "lng": 126.9737893089,
    "address": "서울특별시 동작구 사당로 20바길 18-1"
  },
  {
    "name": "사당4동 수거함",
    "lat": 37.4814753371,
    "lng": 126.9742786904,
    "address": "서울특별시 동작구 사당로 20다길 3"
  },
  {
    "name": "사당4동 수거함",
    "lat": 37.4806209505,
    "lng": 126.9736438099,
    "address": "서울특별시 동작구 사당로 20다길 15"
  },
  {
    "name": "사당4동 수거함",
    "lat": 37.4805514137,
    "lng": 126.9733364234,
    "address": "서울특별시 동작구 사당로 22나길 69"
  },
  {
    "name": "사당4동 수거함",
    "lat": 37.4826662912,
    "lng": 126.9746988783,
    "address": "서울특별시 동작구 동작대로 15길 125"
  },
  {
    "name": "사당4동 수거함",
    "lat": 37.4823141073,
    "lng": 126.9739634095,
    "address": "서울특별시 동작구 사당로 20가길 28"
  },
  {
    "name": "사당4동 수거함",
    "lat": 37.4785218143,
    "lng": 126.9707308359,
    "address": "서울특별시 동작구 사당로 16길 121"
  },
  {
    "name": "사당4동 수거함",
    "lat": 37.4819192465,
    "lng": 126.971455258,
    "address": "서울특별시 동작구 사당로16마길 16"
  },
  {
    "name": "사당4동 수거함",
    "lat": 37.4798556263,
    "lng": 126.9698463054,
    "address": "서울특별시 동작구 사당로 16자길 36"
  },
  {
    "name": "사당4동 수거함",
    "lat": 37.4802061326,
    "lng": 126.9702561193,
    "address": "서울특별시 동작구 사당로 16사길 39"
  },
  {
    "name": "사당4동 수거함",
    "lat": 37.4806638984,
    "lng": 126.9694058362,
    "address": "서울특별시 동작구 사당로 16아길 46"
  },
  {
    "name": "사당4동 수거함",
    "lat": 37.4805325281,
    "lng": 126.9697432616,
    "address": "서울특별시 동작구 사당로 14길 87"
  },
  {
    "name": "사당4동 수거함",
    "lat": 37.4826435152,
    "lng": 126.9705089806,
    "address": "서울특별시 동작구 사당로 14길 40-9"
  },
  {
    "name": "사당4동 수거함",
    "lat": 37.4817579843,
    "lng": 126.971159888,
    "address": "서울특별시 동작구 사당로16사길 2"
  },
  {
    "name": "사당4동 수거함",
    "lat": 37.4816062755,
    "lng": 126.9705153805,
    "address": "서울특별시 동작구 사당로14길 61-2"
  },
  {
    "name": "사당4동 수거함",
    "lat": 0.0,
    "lng": 0.0,
    "address": "서울특별시 동작구 사당로 16마길 36"
  },
  {
    "name": "사당4동 수거함",
    "lat": 37.4822832399,
    "lng": 126.9699448252,
    "address": "서울특별시 동작구 사당로 16라길 17"
  },
  {
    "name": "사당4동 수거함",
    "lat": 37.4819847564,
    "lng": 126.9696733687,
    "address": "서울특별시 동작구 사당로 16라길 27"
  },
  {
    "name": "사당4동 수거함",
    "lat": 37.4774283028,
    "lng": 126.969829644,
    "address": "서울특별시 동작구 남부순환로255길 24-1"
  },
  {
    "name": "사당4동 수거함",
    "lat": 37.4783659991,
    "lng": 126.9720934597,
    "address": "서울특별시 동작구 남부순환로257길 33"
  },
  {
    "name": "사당4동 수거함",
    "lat": 37.4789584183,
    "lng": 126.9709942036,
    "address": "서울특별시 동작구 사당로16길 111"
  },
  {
    "name": "사당4동 수거함",
    "lat": 37.4804293649,
    "lng": 126.9727130533,
    "address": "서울특별시 동작구 사당로20나길 72"
  },
  {
    "name": "사당4동 수거함",
    "lat": 37.4805514137,
    "lng": 126.9733364234,
    "address": "서울특별시 동작구 사당로22나길 69"
  },
  {
    "name": "사당4동 수거함",
    "lat": 0.0,
    "lng": 0.0,
    "address": "서울특별시 동작구 사당동 316-79"
  },
  {
    "name": "사당4동 수거함",
    "lat": 37.4818375053,
    "lng": 126.9706397712,
    "address": "서울특별시 동작구 사당로16마길 29"
  },
  {
    "name": "사당4동 수거함",
    "lat": 37.4814085506,
    "lng": 126.9689390404,
    "address": "서울특별시 동작구 사당로16라길 46"
  },
  {
    "name": "사당4동 수거함",
    "lat": 37.4819847564,
    "lng": 126.9696733687,
    "address": "서울특별시 동작구 사당로16라길 27"
  },
  {
    "name": "사당4동 수거함",
    "lat": 37.4784096315,
    "lng": 126.9714379386,
    "address": "서울특별시 동작구 남부순환로 255마길 29"
  },
  {
    "name": "사당5동 수거함",
    "lat": 37.4835103641,
    "lng": 126.9690544009,
    "address": "서울특별시 동작구 사당로 10길 48"
  },
  {
    "name": "사당5동 수거함",
    "lat": 37.4859790902,
    "lng": 126.9696062875,
    "address": "서울특별시 동작구 사당로 9가길 15"
  },
  {
    "name": "사당5동 수거함",
    "lat": 37.4915157908,
    "lng": 126.9635789718,
    "address": "서울특별시 동작구 사당로 2사길 8"
  },
  {
    "name": "사당5동 수거함",
    "lat": 0.0,
    "lng": 0.0,
    "address": "서울특별시 동작구 사당로 2사길 7"
  },
  {
    "name": "사당5동 수거함",
    "lat": 37.4902744846,
    "lng": 126.9636172285,
    "address": "서울특별시 동작구 사당로 2라길 63"
  },
  {
    "name": "사당5동 수거함",
    "lat": 37.4895737839,
    "lng": 126.9639533978,
    "address": "서울특별시 동작구 사당로 2라길 83"
  },
  {
    "name": "사당5동 수거함",
    "lat": 37.4897617796,
    "lng": 126.9647008409,
    "address": "서울특별시 동작구 사당로2자길 6"
  },
  {
    "name": "사당5동 수거함",
    "lat": 0.0,
    "lng": 0.0,
    "address": "서울특별시 동작구 사당로 2자길 139"
  },
  {
    "name": "사당5동 수거함",
    "lat": 0.0,
    "lng": 0.0,
    "address": "서울특별시 동작구 사당로 2자길 49"
  },
  {
    "name": "사당5동 수거함",
    "lat": 37.4819467467,
    "lng": 126.9663909564,
    "address": "서울특별시 동작구 솔밭로 59"
  },
  {
    "name": "사당5동 수거함",
    "lat": 37.4821664392,
    "lng": 126.9668034239,
    "address": "서울특별시 동작구 솔밭로 64"
  },
  {
    "name": "사당5동 수거함",
    "lat": 0.0,
    "lng": 0.0,
    "address": "서울특별시 동작구 솔밭로 69"
  },
  {
    "name": "사당5동 수거함",
    "lat": 0.0,
    "lng": 0.0,
    "address": "서울특별시 동작구 솔밭로 73"
  },
  {
    "name": "사당5동 수거함",
    "lat": 37.4832781468,
    "lng": 126.9672806292,
    "address": "서울특별시 동작구 사당로 8나길 24"
  },
  {
    "name": "사당5동 수거함",
    "lat": 37.4837062,
    "lng": 126.9678792351,
    "address": "서울특별시 동작구 사당로 8나길 12"
  },
  {
    "name": "사당5동 수거함",
    "lat": 37.4848803592,
    "lng": 126.9694456124,
    "address": "서울특별시 동작구 사당로 8길 8"
  },
  {
    "name": "사당5동 수거함",
    "lat": 37.4844752402,
    "lng": 126.9693467314,
    "address": "서울특별시 동작구 사당로 10길 18"
  },
  {
    "name": "사당5동 수거함",
    "lat": 37.4842633222,
    "lng": 126.9696926865,
    "address": "서울특별시 동작구 사당로 16가길 71"
  },
  {
    "name": "사당5동 수거함",
    "lat": 37.4846356925,
    "lng": 126.9682572706,
    "address": "서울특별시 동작구 사당로16다길 98"
  },
  {
    "name": "사당5동 수거함",
    "lat": 0.0,
    "lng": 0.0,
    "address": "서울특별시 동작구 사당동 235-63"
  },
  {
    "name": "사당5동 수거함",
    "lat": 0.0,
    "lng": 0.0,
    "address": "서울특별시 동작구 사당동 228-2"
  },
  {
    "name": "사당5동 수거함",
    "lat": 37.4860800221,
    "lng": 126.9663517922,
    "address": "서울특별시 동작구 사당로2가길 207"
  },
  {
    "name": "사당5동 수거함",
    "lat": 37.4867104741,
    "lng": 126.9657822042,
    "address": "서울특별시 동작구 사당로4길 23"
  },
  {
    "name": "사당5동 수거함",
    "lat": 37.4884491157,
    "lng": 126.9638540955,
    "address": "서울특별시 동작구 사당로2가길 133"
  },
  {
    "name": "사당5동 수거함",
    "lat": 37.4898992527,
    "lng": 126.9625843629,
    "address": "서울특별시 동작구 사당로2가길 91"
  },
  {
    "name": "사당5동 수거함",
    "lat": 37.490196648,
    "lng": 126.9645408615,
    "address": "서울특별시 동작구 사당로2아길 2"
  },
  {
    "name": "사당5동 수거함",
    "lat": 37.4866329019,
    "lng": 126.9677194587,
    "address": "서울특별시 동작구 사당로 170"
  },
  {
    "name": "사당5동 수거함",
    "lat": 37.4873800241,
    "lng": 126.966767422,
    "address": "서울특별시 동작구 사당로 158"
  },
  {
    "name": "사당5동 수거함",
    "lat": 0.0,
    "lng": 0.0,
    "address": "서울특별시 동작구 사당동 712-1"
  },
  {
    "name": "사당5동 수거함",
    "lat": 37.4842633222,
    "lng": 126.9696926865,
    "address": "서울특별시 동작구 사당로16가길 71"
  },
  {
    "name": "사당5동 수거함",
    "lat": 37.4898992527,
    "lng": 126.9625843629,
    "address": "서울특별시 동작구 사당로2가길 91"
  }
]